[
  { "wikidataId": "Q220", "label": "Rome", "coordinates": [12.482777777778, 41.893055555556] },
  { "wikidataId": "Q944814", "label": "Theatre of Pompey", "coordinates": [12.47361111, 41.89527778] },
  { "wikidataId": "Q1747689", "label": "Ancient Rome", "coordinates": [12.48, 41.89] },
  { "wikidataId": "Q213679", "label": "Pella", "coordinates": [22.519167, 40.76] },
  { "wikidataId": "Q5684", "label": "Babylon", "coordinates": [44.431644444444, 32.541780555556] },
  { "wikidataId": "Q2839314", "label": "Alopeke", "coordinates": [23.75, 37.95] },
  { "wikidataId": "Q1524", "label": "Athens", "coordinates": [23.728055555555557, 37.98416666666667] },
  { "wikidataId": "Q844930", "label": "Classical Athens", "coordinates": [23.71666667, 37.96666667] },
  { "wikidataId": "Q389688", "label": "Achaemenid Empire", "coordinates": [44.42083333, 32.53638889] },
  { "wikidataId": "Q87", "label": "Alexandria", "coordinates": [29.916666666667, 31.2] },
  { "wikidataId": "Q11768", "label": "Ancient Egypt", "coordinates": [31.3, 29.8] },
  { "wikidataId": "Q72288", "label": "Nola", "coordinates": [14.533333333333, 40.933333333333] },
  { "wikidataId": "Q9213", "label": "Lumbini", "coordinates": [83.275829, 27.4814] },
  { "wikidataId": "Q825673", "label": "Kushinagar", "coordinates": [83.888888888889, 26.740277777778] },
  { "wikidataId": "Q668", "label": "India", "coordinates": [83, 22.8] },
  { "wikidataId": "Q837", "label": "Nepal", "coordinates": [84, 28] },
  { "wikidataId": "Q30610827", "label": "Kapilavastu", "coordinates": [83.054978, 27.576455] },
  { "wikidataId": "Q11225429", "label": "Thebes", "coordinates": [23.31722222, 38.32388889] },
  { "wikidataId": "Q1160195", "label": "Mantineia", "coordinates": [22.383333333333, 37.616666666667] },
  { "wikidataId": "Q5690", "label": "Sparta", "coordinates": [22.423611111111, 37.081944444444] },
  { "wikidataId": "Q194450", "label": "Thermopylae", "coordinates": [22.535785, 38.797617] },
  { "wikidataId": "Q6343", "label": "Carthage", "coordinates": [10.323461, 36.852558] },
  { "wikidataId": "Q206116", "label": "Gebze", "coordinates": [29.430555555556, 40.802777777778] },
  { "wikidataId": "Q2429397", "label": "Ancient Carthage", "coordinates": [10.32644723, 36.84391668] },
  { "wikidataId": "Q898417", "label": "Liternum", "coordinates": [14.030128, 40.921094] },
  { "wikidataId": "Q599416", "label": "Sinop", "coordinates": [35.15111111111111, 42.026666666666664] },
  { "wikidataId": "Q321371", "label": "Bosporan Kingdom", "coordinates": [37.04, 45.26] },
  { "wikidataId": "Q7380487", "label": "Kingdom of Pontus", "coordinates": [35.833333333333, 40.65] },
  { "wikidataId": "Q1018197", "label": "Eresos", "coordinates": [25.933055555556, 39.166666666667] },
  { "wikidataId": "Q128087", "label": "Lesbos", "coordinates": [26.28, 39.21] },
  { "wikidataId": "Q189059", "label": "Mytilene", "coordinates": [26.5536, 39.1047] },
  { "wikidataId": "Q190138", "label": "Lefkada", "coordinates": [20.643889, 38.717778] },
  { "wikidataId": "Q4420718", "label": "ancient Syracuse", "coordinates": [15.28333333, 37.08333333] },
  { "wikidataId": "Q116440", "label": "Arpino", "coordinates": [13.61155, 41.64705] },
  { "wikidataId": "Q1145715", "label": "Pelusium", "coordinates": [32.6, 31.05] },
  { "wikidataId": "Q189901", "label": "Argos", "coordinates": [22.729166666666668, 37.63333333333333] },
  { "wikidataId": "Q16659185", "label": "Europos", "coordinates": [22.55437, 40.88602] },
  { "wikidataId": "Q517690", "label": "Lysimachia", "coordinates": [26.88, 40.58] },
  { "wikidataId": "Q93180", "label": "Seleucid Empire", "coordinates": [44.522222222222226, 33.09444444444444] },
  { "wikidataId": "Q14311", "label": "Júcar-Xúquer", "coordinates": [-0.294742, 39.172856] },
  { "wikidataId": "Q117382", "label": "Sora", "coordinates": [13.616666666667, 41.716666666667] },
  { "wikidataId": "Q846127", "label": "Stagira", "coordinates": [23.79416667, 40.59083333] },
  { "wikidataId": "Q1329498", "label": "Elimiotis", "coordinates": [21.991268, 40.281251] },
  { "wikidataId": "Q2732880", "label": "Ipsos", "coordinates": [30.549206, 38.856193] },
  { "wikidataId": "Q169460", "label": "Miletus", "coordinates": [27.275556, 37.531111] },
  { "wikidataId": "Q5843680", "label": "Halicarnassus", "coordinates": [27.424167, 37.037778] },
  { "wikidataId": "Q602564", "label": "Thurii", "coordinates": [16.47111111, 39.695] },
  { "wikidataId": "Q156882", "label": "Samos", "coordinates": [26.8333, 37.75] },
  { "wikidataId": "Q13502175", "label": "Erchia", "coordinates": [23.9186855, 37.9672025] },
  { "wikidataId": "Q103011", "label": "Corinth", "coordinates": [22.927222222222223, 37.93861111111111] },
  { "wikidataId": "Q32579", "label": "Phrygia", "coordinates": [31, 39] },
  { "wikidataId": "Q1432674", "label": "Magnesia on the Maeander", "coordinates": [27.527104, 37.852692] },
  { "wikidataId": "Q5776", "label": "Bethlehem", "coordinates": [35.206111111111, 31.704444444444] },
  { "wikidataId": "Q430776", "label": "Nazareth", "coordinates": [35.29785, 32.702102777778] },
  { "wikidataId": "Q170516", "label": "Calvary", "coordinates": [35.229444444444, 31.778611111111] },
  { "wikidataId": "Q59174", "label": "Capernaum", "coordinates": [35.575, 32.881111111111] },
  { "wikidataId": "Q83241", "label": "Galilee", "coordinates": [35.527, 32.76] },
  {
    "wikidataId": "Q16000109",
    "label": "Herodian Kingdom of Judea",
    "coordinates": [35.21666666666667, 31.783333333333335]
  },
  { "wikidataId": "Q210287", "label": "Qufu", "coordinates": [116.98333333333, 35.6] },
  { "wikidataId": "Q12996889", "label": "Chinaamiram", "coordinates": [81.49527778, 16.54055556] },
  { "wikidataId": "Q29520", "label": "China", "coordinates": [105, 35] },
  { "wikidataId": "Q549874", "label": "Chaeronea", "coordinates": [22.844819444444, 38.495166666667] },
  { "wikidataId": "Q128086", "label": "Formia", "coordinates": [13.606944444444, 41.256388888889] },
  { "wikidataId": "Q43332", "label": "Pompeii", "coordinates": [14.489722, 40.750556] },
  { "wikidataId": "Q47611", "label": "Ephesus", "coordinates": [27.348611, 37.939722] },
  { "wikidataId": "Q1743884", "label": "Kition", "coordinates": [33.630545, 34.923296] },
  { "wikidataId": "Q186513", "label": "Hispania", "coordinates": [-4.35, 40.21] },
  { "wikidataId": "Q30030961", "label": "Sulmona", "coordinates": [13.926198055556, 42.048025] },
  { "wikidataId": "Q79808", "label": "Constanța", "coordinates": [28.638333333333, 44.173333333333] },
  { "wikidataId": "Q15710617", "label": "Borgo Virgilio", "coordinates": [10.75, 45.05] },
  { "wikidataId": "Q491753", "label": "Andes", "coordinates": [10.82393, 45.1252] },
  { "wikidataId": "Q13496", "label": "Brindisi", "coordinates": [17.945833333333, 40.638333333333] },
  { "wikidataId": "Q617", "label": "Padua", "coordinates": [11.877777777778, 45.406388888889] },
  { "wikidataId": "Q2277", "label": "Roman Empire", "coordinates": [14, 42] },
  { "wikidataId": "Q56195", "label": "Agira", "coordinates": [14.516666666667, 37.65] },
  { "wikidataId": "Q823721", "label": "Megalopoli", "coordinates": [22.133333333333, 37.4] },
  { "wikidataId": "Q41", "label": "Greece", "coordinates": [23, 38.5] },
  { "wikidataId": "Q1218", "label": "Jerusalem", "coordinates": [35.216666666667, 31.783333333333] },
  { "wikidataId": "Q617550", "label": "Apamea", "coordinates": [36.398, 35.418] },
  { "wikidataId": "Q44112", "label": "Cyrene", "coordinates": [21.85, 32.816666666667] },
  { "wikidataId": "Q752699", "label": "Pitane", "coordinates": [26.933333333333, 38.933333333333] },
  { "wikidataId": "Q180773", "label": "Susa", "coordinates": [48.25, 32.2] },
  { "wikidataId": "Q1201037", "label": "Feng County", "coordinates": [106.5187, 33.91234] },
  { "wikidataId": "Q6501000", "label": "Chang'an", "coordinates": [108.9, 34.266666666667] },
  { "wikidataId": "Q1069968", "label": "Chenggu County", "coordinates": [107.32536, 33.15405] },
  { "wikidataId": "Q7209", "label": "Han dynasty", "coordinates": [108.94638888889, 34.155833333333] },
  { "wikidataId": "Q1650", "label": "Weser", "coordinates": [8.522222, 53.561111] },
  { "wikidataId": "Q62646", "label": "Germania", "coordinates": [11.1, 50.9] },
  { "wikidataId": "Q183", "label": "Germany", "coordinates": [10, 51] },
  { "wikidataId": "Q41741", "label": "Thrace", "coordinates": [26, 42] },
  { "wikidataId": "Q1131978", "label": "Lucania", "coordinates": [15.956247, 40.482608] },
  { "wikidataId": "Q401231", "label": "Miseno", "coordinates": [14.086389, 40.786389] },
  { "wikidataId": "Q134287", "label": "Tarsus", "coordinates": [34.9, 36.916666666667] },
  { "wikidataId": "Q200642", "label": "Palatine Hill", "coordinates": [12.486944444444, 41.888333333333] },
  { "wikidataId": "Q665", "label": "Lugdunum", "coordinates": [4.8194444444444, 45.759722222222] },
  { "wikidataId": "Q622438", "label": "Domus Aurea", "coordinates": [12.495277777778, 41.891388888889] },
  { "wikidataId": "Q185103", "label": "Roman Britain", "coordinates": [-0.57, 52.22] },
  { "wikidataId": "Q187136", "label": "Luoyang", "coordinates": [112.42447, 34.65867] },
  { "wikidataId": "Q1147037", "label": "Eastern Han", "coordinates": [112.4, 34.66] },
  { "wikidataId": "Q3746183", "label": "Persis", "coordinates": [52, 30] },
  { "wikidataId": "Q132646", "label": "Bactria", "coordinates": [66.898889, 36.758056] },
  { "wikidataId": "Q794", "label": "Iran", "coordinates": [53, 32] },
  { "wikidataId": "Q204905", "label": "Eleusis", "coordinates": [23.54527778, 38.04138889] },
  { "wikidataId": "Q39971", "label": "Gela", "coordinates": [14.25, 37.066666666667] },
  { "wikidataId": "Q1235930", "label": "Colonus", "coordinates": [23.715278, 37.995833] },
  { "wikidataId": "Q13422916", "label": "Atene", "coordinates": [23.96, 37.68] },
  { "wikidataId": "Q171882", "label": "Larnaca", "coordinates": [33.633333333333, 34.916666666667] },
  { "wikidataId": "Q767089", "label": "Salamis", "coordinates": [33.9, 35.183333333333] },
  { "wikidataId": "Q187027", "label": "Kos", "coordinates": [27.110277777778, 36.815277777778] },
  { "wikidataId": "Q178405", "label": "Larissa", "coordinates": [22.413061, 39.638493] },
  { "wikidataId": "Q188615", "label": "Abdera", "coordinates": [24.98305556, 40.95] }
]
