[
  { "wikidataId": "Q237614", "label": "Nimrud", "coordinates": [43.328888888889, 36.098055555556] },
  { "wikidataId": "Q5680", "label": "Nineveh", "coordinates": [43.15, 36.366667] },
  { "wikidataId": "Q41137", "label": "Assyrian Empire", "coordinates": [43.3, 36] },
  { "wikidataId": "Q5684", "label": "Babylon", "coordinates": [44.431644444444, 32.541780555556] },
  { "wikidataId": "Q1218", "label": "Jerusalem", "coordinates": [35.216666666667, 31.783333333333] },
  { "wikidataId": "Q48685", "label": "Judah", "coordinates": [35.099825, 31.532569] },
  { "wikidataId": "Q11768", "label": "Ancient Egypt", "coordinates": [31.3, 29.8] },
  { "wikidataId": "Q865988", "label": "Ancient Linzi", "coordinates": [118.3554, 36.8829] },
  { "wikidataId": "Q1524", "label": "Athens", "coordinates": [23.728055555555557, 37.98416666666667] },
  { "wikidataId": "Q191082", "label": "Aegina", "coordinates": [23.49, 37.73] },
  { "wikidataId": "Q844930", "label": "Classical Athens", "coordinates": [23.71666667, 37.96666667] },
  { "wikidataId": "Q583490", "label": "Antissa", "coordinates": [25.98027778, 39.23333333] },
  { "wikidataId": "Q5690", "label": "Sparta", "coordinates": [22.423611111111, 37.081944444444] },
  { "wikidataId": "Q3836325", "label": "Epizephyrian Locri", "coordinates": [16.23677, 38.20779] },
  { "wikidataId": "Q1747689", "label": "Ancient Rome", "coordinates": [12.48, 41.89] },
  { "wikidataId": "Q201272", "label": "Paros", "coordinates": [25.183333333333, 37.05] },
  { "wikidataId": "Q188527", "label": "Naxos Island", "coordinates": [25.466666666667, 37.083333333333] },
  { "wikidataId": "Q220", "label": "Rome", "coordinates": [12.482777777778, 41.893055555556] },
  { "wikidataId": "Q47690", "label": "Babylonia", "coordinates": [44.5, 32.5] },
  { "wikidataId": "Q1142488", "label": "Colophon", "coordinates": [27.14222222, 38.11555556] },
  { "wikidataId": "Q3660711", "label": "Haran", "coordinates": [39.2167, 36.85] },
  { "wikidataId": "Q1810451", "label": "Tahpanhes", "coordinates": [32.171388888889, 30.860555555556] },
  { "wikidataId": "Q232615", "label": "Sardis", "coordinates": [28.040278, 38.488333] },
  { "wikidataId": "Q103011", "label": "Corinth", "coordinates": [22.927222222222223, 37.93861111111111] },
  { "wikidataId": "Q5715", "label": "Memphis", "coordinates": [31.25934, 29.85412] },
  { "wikidataId": "Q1295830", "label": "Yingshang County", "coordinates": [116.25619, 32.63584] },
  { "wikidataId": "Q43407", "label": "Shandong", "coordinates": [118.4, 36.4] },
  { "wikidataId": "Q34756", "label": "Qin", "coordinates": [106.993575, 33.049117] },
  { "wikidataId": "Q794", "label": "Iran", "coordinates": [53, 32] },
  { "wikidataId": "Q128904", "label": "Elam", "coordinates": [52.4, 29.9] },
  { "wikidataId": "Q2537068", "label": "Andania", "coordinates": [21.9482, 37.2679] },
  { "wikidataId": "Q43048", "label": "Rhodes", "coordinates": [28, 36.166666666667] },
  { "wikidataId": "Q1247159", "label": "Messenia", "coordinates": [21.8333, 37.25] },
  { "wikidataId": "Q128087", "label": "Lesbos", "coordinates": [26.28, 39.21] },
  { "wikidataId": "Q6076774", "label": "Pyrrha", "coordinates": [26.25, 39.1667] },
  { "wikidataId": "Q368628", "label": "Sicyon", "coordinates": [22.711145, 37.984104] },
  { "wikidataId": "Q13670", "label": "Syracuse", "coordinates": [15.2875, 37.069166666667] },
  { "wikidataId": "Q837807", "label": "Zhaoge", "coordinates": [114.19416666666666, 35.602222222222224] },
  { "wikidataId": "Q1583181", "label": "Sigeion", "coordinates": [26.18055556, 39.99] },
  { "wikidataId": "Q689896", "label": "Abbey library of St. Gallen", "coordinates": [9.3764, 47.4228] },
  { "wikidataId": "Q1018197", "label": "Eresos", "coordinates": [25.933055555556, 39.166666666667] },
  { "wikidataId": "Q189059", "label": "Mytilene", "coordinates": [26.5536, 39.1047] },
  { "wikidataId": "Q190138", "label": "Lefkada", "coordinates": [20.643889, 38.717778] },
  { "wikidataId": "Q4420718", "label": "ancient Syracuse", "coordinates": [15.28333333, 37.08333333] },
  { "wikidataId": "Q169460", "label": "Miletus", "coordinates": [27.275556, 37.531111] },
  { "wikidataId": "Q1317936", "label": "Mesembria (Pontus)", "coordinates": [27.733353, 42.658737] },
  { "wikidataId": "Q75459", "label": "Delphi", "coordinates": [22.5, 38.483333333333] },
  { "wikidataId": "Q13526212", "label": "Ikarion", "coordinates": [23.8908555, 38.1050635] },
  { "wikidataId": "Q696193", "label": "Ecbatana", "coordinates": [48.516247, 34.8065] },
  { "wikidataId": "Q3746183", "label": "Persis", "coordinates": [52, 30] },
  { "wikidataId": "Q230025", "label": "Pasargadae", "coordinates": [53.179444444444, 30.2] },
  { "wikidataId": "Q1058770", "label": "Metapontum", "coordinates": [16.816763888889, 40.416077777778] },
  { "wikidataId": "Q42295059", "label": "Mytilene", "coordinates": [26.5621, 39.1114] },
  { "wikidataId": "Q54614", "label": "Gioia Tauro", "coordinates": [15.9, 38.433333333333] },
  { "wikidataId": "Q1903", "label": "Catania", "coordinates": [15.087269444444, 37.502669444444] },
  { "wikidataId": "Q6681", "label": "Crotone", "coordinates": [17.116666666667, 39.083333333333] },
  { "wikidataId": "Q185068", "label": "Urartu", "coordinates": [43.3425, 38.5] },
  { "wikidataId": "Q44112", "label": "Cyrene", "coordinates": [21.85, 32.816666666667] },
  { "wikidataId": "Q7623270", "label": "Phigalia", "coordinates": [21.8391, 37.3963] },
  { "wikidataId": "Q38888", "label": "Olympia", "coordinates": [21.630833333333, 37.638333333333] },
  { "wikidataId": "Q995656", "label": "Karystos", "coordinates": [24.420275, 38.015791666667] },
  { "wikidataId": "Q569107", "label": "Anshan", "coordinates": [52.407777777778, 30.011666666667] },
  { "wikidataId": "Q483159", "label": "Syr Dar", "coordinates": [71.7575, 40.9] },
  { "wikidataId": "Q389688", "label": "Achaemenid Empire", "coordinates": [44.42083333, 32.53638889] },
  { "wikidataId": "Q9213", "label": "Lumbini", "coordinates": [83.275829, 27.4814] },
  { "wikidataId": "Q825673", "label": "Kushinagar", "coordinates": [83.888888888889, 26.740277777778] },
  { "wikidataId": "Q668", "label": "India", "coordinates": [83, 22.8] },
  { "wikidataId": "Q837", "label": "Nepal", "coordinates": [84, 28] },
  { "wikidataId": "Q30610827", "label": "Kapilavastu", "coordinates": [83.054978, 27.576455] },
  { "wikidataId": "Q922329", "label": "Pisa", "coordinates": [21.654, 37.644] },
  { "wikidataId": "Q41", "label": "Greece", "coordinates": [23, 38.5] },
  { "wikidataId": "Q211230", "label": "Syros", "coordinates": [24.9, 37.45] },
  { "wikidataId": "Q17", "label": "Japan", "coordinates": [136, 35] },
  { "wikidataId": "Q142819", "label": "Priene", "coordinates": [27.297778, 37.659722] },
  { "wikidataId": "Q614510", "label": "Gabii", "coordinates": [12.715833333333334, 41.88688888888889] },
  { "wikidataId": "Q135028", "label": "Nubia", "coordinates": [32.2558, 18.9508] },
  { "wikidataId": "Q166919", "label": "Thessalia", "coordinates": [22.2, 39.6] },
  { "wikidataId": "Q29520", "label": "China", "coordinates": [105, 35] },
  { "wikidataId": "Q38060", "label": "Gaul", "coordinates": [2.9, 46.5] },
  { "wikidataId": "Q82070", "label": "Tyre", "coordinates": [35.2, 33.266666666667] },
  { "wikidataId": "Q1432674", "label": "Magnesia on the Maeander", "coordinates": [27.527104, 37.852692] },
  { "wikidataId": "Q2359730", "label": "Stymphalos", "coordinates": [22.459311111111, 37.859319444444] },
  { "wikidataId": "Q1160195", "label": "Mantineia", "coordinates": [22.383333333333, 37.616666666667] },
  { "wikidataId": "Q2006096", "label": "Ramoth-Gilead", "coordinates": [36.016666666667, 32.5] },
  { "wikidataId": "Q1757438", "label": "Samaria", "coordinates": [35.195, 32.276111] },
  { "wikidataId": "Q170054", "label": "Arcadia Prefecture", "coordinates": [22.375, 37.508333] },
  { "wikidataId": "Q208379", "label": "Tel Megiddo", "coordinates": [35.184444444444445, 32.585277777777776] },
  { "wikidataId": "Q1294629", "label": "Samaria", "coordinates": [35.26062, 32.14306] },
  { "wikidataId": "Q2914898", "label": "Jezreel", "coordinates": [35.327952777778, 32.557852777778] },
  { "wikidataId": "Q12874064", "label": "Messini", "coordinates": [22, 37.05] },
  { "wikidataId": "Q650271", "label": "Alimus", "coordinates": [36.160389, 36.202667] },
  { "wikidataId": "Q241790", "label": "Kush", "coordinates": [33.83, 17.18] },
  { "wikidataId": "Q1049", "label": "Sudan", "coordinates": [32, 15] },
  { "wikidataId": "Q1502156", "label": "Heraclea Minoa", "coordinates": [13.280747222222, 37.393952777778] },
  { "wikidataId": "Q122443", "label": "Attica", "coordinates": [23.81, 38.0027] },
  { "wikidataId": "Q79", "label": "Egypt", "coordinates": [29, 27] },
  { "wikidataId": "Q192860", "label": "Gallipoli", "coordinates": [26.455, 40.367222222222] },
  { "wikidataId": "Q428732", "label": "Phocaea", "coordinates": [26.758055555556, 38.6675] },
  { "wikidataId": "Q200133", "label": "Chalkida", "coordinates": [23.595, 38.4625] },
  { "wikidataId": "Q173096", "label": "Euboea", "coordinates": [24, 38.5] },
  { "wikidataId": "Q1363688", "label": "Ancient Corinth", "coordinates": [22.878741, 37.905785] },
  { "wikidataId": "Q184864", "label": "Megara", "coordinates": [23.3423, 37.9949] },
  { "wikidataId": "Q1231662", "label": "Dyme", "coordinates": [21.551425, 38.144625] },
  { "wikidataId": "Q5760", "label": "Thebes", "coordinates": [23.323611111111, 38.324166666667] },
  { "wikidataId": "Q335070", "label": "Alba Longa", "coordinates": [12.65026, 41.74691] }
]
